id,title,description,latitude,longitude
1,Providence Memorial Hospital,"2001 N. Oregon St., El Paso - 79902",31.771691253000483,-106.49985294199968
2,Memorial Hermann Baptist Orange Hospital,"608 Strickland Drive, Orange - 77630",30.09942102700046,-93.76764915199965
3,Peterson Regional Medical Center,"551 Hill Country Drive, Kerrville - 78028",30.044887701000448,-99.15177382699966
4,United Regional Health Care System,"1600 11th St., Wichita Falls - 76301",33.90291267200047,-98.50044645099968
5,St Joseph Regional Health Center,"2801 Franciscan Drive, Bryan - 77802",30.655558166000446,-96.34736305399969
6,Parkland Health And Hospital System,"5201 Harry Hines Blvd., Dallas - 75235",32.81152823000048,-96.83703823599967
7,University Of Texas Medical Branch Gal,"301 University Blvd., Galveston - 77555",29.311109555000485,-94.77554777299969
8,Baylor University Medical Center,"3500 Gaston Ave., Dallas - 75246",32.79078733400047,-96.78053864299966
